{
"type": "FeatureCollection",
"name": "Casus_logboek_geo",
"crs": { "type": "name", "properties": { "name": "urn:ogc:def:crs:OGC:1.3:CRS84" } },
"features": [
{ "type": "Feature", "properties": { "ID": 1, "Projectnaam": "Nieuwbouw Charlegmagne college", "Gemeente": "Landgraaf" }, "geometry": { "type": "Point", "coordinates": [ 6.027538285054495, 50.899935265874447 ] } },
{ "type": "Feature", "properties": { "ID": 2, "Projectnaam": "Betonindustrie Dautzenberg", "Gemeente": "Simpelveld" }, "geometry": { "type": "Point", "coordinates": [ 5.9894289333, 50.8302240537 ] } },
{ "type": "Feature", "properties": { "ID": 3, "Projectnaam": "Zonnepark Nieuwe Energie", "Gemeente": "Brunssum" }, "geometry": { "type": "Point", "coordinates": [ 5.987498586, 50.937594102600002 ] } },
{ "type": "Feature", "properties": { "ID": 4, "Projectnaam": "Centrumbad Laanderstraat", "Gemeente": "Heerlen" }, "geometry": { "type": "Point", "coordinates": [ 5.9715359173, 50.888183380199997 ] } },
{ "type": "Feature", "properties": { "ID": 5, "Projectnaam": "Filmhub Royal / Rivoli", "Gemeente": "Heerlen" }, "geometry": { "type": "Point", "coordinates": [ 5.9752964348, 50.889871069599998 ] } },
{ "type": "Feature", "properties": { "ID": 6, "Projectnaam": "Promenade Zuyd Hogeschool", "Gemeente": "Heerlen" }, "geometry": { "type": "Point", "coordinates": [ 5.9775871052, 50.887372423599999 ] } },
{ "type": "Feature", "properties": { "ID": 7, "Projectnaam": "Schinkelkwadrant Zuid", "Gemeente": "Heerlen" }, "geometry": { "type": "Point", "coordinates": [ 5.9749317526, 50.8877151055 ] } },
{ "type": "Feature", "properties": { "ID": 8, "Projectnaam": "Schinkelkwadrant Noord", "Gemeente": "Heerlen" }, "geometry": { "type": "Point", "coordinates": [ 5.9742682468, 50.888587088100003 ] } },
{ "type": "Feature", "properties": { "ID": 9, "Projectnaam": "Horecavoorziening Schinkelkwadrant", "Gemeente": "Heerlen" }, "geometry": { "type": "Point", "coordinates": [ 5.974597916, 50.887607081799999 ] } },
{ "type": "Feature", "properties": { "ID": 11, "Projectnaam": "Studentencampus", "Gemeente": "Heerlen" }, "geometry": { "type": "Point", "coordinates": [ 5.983224337527746, 50.886135503463755 ] } },
{ "type": "Feature", "properties": { "ID": 10, "Projectnaam": "Zonnecarport Pinkpop terrein ", "Gemeente": "Landgraaf" }, "geometry": { "type": "Point", "coordinates": [ 6.02072493158515, 50.88227056892439 ] } },
{ "type": "Feature", "properties": { "ID": 12, "Projectnaam": "Vakantiepark Rouenhof", "Gemeente": "Landgraaf" }, "geometry": { "type": "Point", "coordinates": [ 6.033696196795628, 50.893544618599257 ] } },
{ "type": "Feature", "properties": { "ID": 13, "Projectnaam": "WoonZorg complex Emma", "Gemeente": "Landgraaf" }, "geometry": { "type": "Point", "coordinates": [ 6.032665992487828, 50.909557561507022 ] } },
{ "type": "Feature", "properties": { "ID": 14, "Projectnaam": "Miljoenenlijn", "Gemeente": "Simpelveld" }, "geometry": { "type": "Point", "coordinates": [ 5.985686164239975, 50.830813402875485 ] } },
{ "type": "Feature", "properties": { "ID": 15, "Projectnaam": "Wijkzorgcentrum (de Vie)", "Gemeente": "Kerkrade" }, "geometry": { "type": "Point", "coordinates": [ 6.060937707885502, 50.866204134050221 ] } },
{ "type": "Feature", "properties": { "ID": 16, "Projectnaam": "Martin Buber school", "Gemeente": "Kerkrade" }, "geometry": { "type": "Point", "coordinates": [ 6.059970863702069, 50.866618166525996 ] } },
{ "type": "Feature", "properties": { "ID": 17, "Projectnaam": "BMV Heerlerbaan", "Gemeente": "Heerlen" }, "geometry": { "type": "Point", "coordinates": [ 6.006187428025706, 50.868503424234405 ] } },
{ "type": "Feature", "properties": { "ID": 18, "Projectnaam": "Verduurzaming Voskuilenweg", "Gemeente": "Heerlen" }, "geometry": { "type": "Point", "coordinates": [ 5.995026264280908, 50.889287461081331 ] } },
{ "type": "Feature", "properties": { "ID": 19, "Projectnaam": "Woningbouw en overige ontwikkeling DSM-gebouw", "Gemeente": "Heerlen" }, "geometry": { "type": "Point", "coordinates": [ 5.967942873153413, 50.887098120377338 ] } },
{ "type": "Feature", "properties": { "ID": 20, "Projectnaam": "Mooi Leven Huis Schimmert", "Gemeente": "Beekdaelen" }, "geometry": { "type": "Point", "coordinates": [ 5.832181527633994, 50.915417760683553 ] } },
{ "type": "Feature", "properties": { "ID": 21, "Projectnaam": "Thermenmuseum", "Gemeente": "Heerlen" }, "geometry": { "type": "Point", "coordinates": [ 5.976626948778805, 50.885281051004092 ] } }
]
}
